{"type":"FeatureCollection","features":[{"type":"Feature","properties":{"marker-color":"#e12d1e","marker-size":"medium","marker-symbol":"toilets","name":"Bishal Bazar"},"geometry":{"type":"Point","coordinates":[85.30952990055083,27.704394325432958]}},{"type":"Feature","properties":{"marker-color":"#e12d1e","marker-size":"medium","marker-symbol":"toilets","name":"Pashupati-Plaza"},"geometry":{"type":"Point","coordinates":[85.31137526035309,27.702394796969966]}},{"type":"Feature","properties":{"marker-color":"#e12d1e","marker-size":"medium","marker-symbol":"toilets","name":"P-Plaza"},"geometry":{"type":"Point","coordinates":[85.31230330467224,27.701915094668315]}},{"type":"Feature","properties":{"marker-color":"#e12d1e","marker-size":"medium","marker-symbol":"toilets","name":"KTM Mall"},"geometry":{"type":"Point","coordinates":[85.31307578086853,27.70158737604189]}},{"type":"Feature","properties":{"marker-color":"#e12d1e","marker-size":"medium","marker-symbol":"toilets","name":"Bir Hospital Bridge"},"geometry":{"type":"Point","coordinates":[85.31391263008118,27.704812274495993]}},{"type":"Feature","properties":{"marker-color":"#e12d1e","marker-size":"medium","marker-symbol":"toilets","name":"Tudhikhel Bridge"},"geometry":{"type":"Point","coordinates":[85.31351566314697,27.700172000235412]}},{"type":"Feature","properties":{"marker-color":"#e12d1e","marker-size":"medium","marker-symbol":"toilets","name":"RTC"},"geometry":{"type":"Point","coordinates":[85.31038820743561,27.704313585088542]}},{"type":"Feature","properties":{"marker-color":"#e12d1e","marker-size":"medium","marker-symbol":"toilets","name":"Civil Mall"},"geometry":{"type":"Point","coordinates":[85.31295776367188,27.697835165107577]}}]}